{
  "cities": [
    {
      "cityName": "Lisbon",
      "country": "Portugal",
      "emoji": "ðŸ‡µðŸ‡¹",
      "date": "2027-10-31T15:59:59.138Z",
      "notes": "My favorite city so far!",
      "position": {
        "lat": 38.727881642324164,
        "lng": -9.140900099907554
      },
      "id": "73930385"
    },
    {
      "cityName": "Madrid",
      "country": "Spain",
      "emoji": "ðŸ‡ªðŸ‡¸",
      "date": "2027-07-15T08:22:53.976Z",
      "notes": "",
      "position": {
        "lat": 40.46635901755316,
        "lng": -3.7133789062500004
      },
      "id": "17806751"
    },
    {
      "cityName": "Berlin",
      "country": "Germany",
      "emoji": "ðŸ‡©ðŸ‡ª",
      "date": "2027-02-12T09:24:11.863Z",
      "notes": "Amazing ðŸ˜ƒ",
      "position": {
        "lat": 52.53586782505711,
        "lng": 13.376933665713324
      },
      "id": "98443197"
    },
    {
      "id": "0278",
      "cityName": "Nairobi",
      "country": "Kenya",
      "date": "Mon Feb 26 2024",
      "emoji": "ðŸ‡°ðŸ‡ª",
      "notes": "runing",
      "position": {
        "lat": "-1.2188754922060576",
        "lng": "36.88848495483399"
      }
    },
    {
      "id": "7d37",
      "cityName": "Castello de la Plana",
      "country": "Spain",
      "date": "Mon Feb 26 2024",
      "emoji": "ðŸ‡ªðŸ‡¸",
      "notes": "",
      "position": {
        "lat": "40.01657199186937",
        "lng": "-0.011501312255859375"
      }
    },
    {
      "id": "da64",
      "cityName": "Kiambu",
      "country": "Kenya",
      "date": "Tue Mar 19 2024",
      "emoji": "ðŸ‡°ðŸ‡ª",
      "notes": "run",
      "position": {
        "lat": "-1.1921022446095584",
        "lng": "36.99697494506837"
      }
    }
  ]
}